name,address,imageUrl,lat,lng
오륙도 스카이워크,부산광역시 남구 오륙도로 137,"../media/오륙도 스카이워크.jpg",35.10067,129.124408
남천해변공원,부산 수영구 남천2동 148-100,"../media/남천해변공원.jpg",35.146566,129.114793
APEC나루공원,부산광역시 해운대구 수영강변대로 93,"../media/APEC나루공원.jpg",35.170646,129.125442
민락수변공원,부산광역시 수영구 광안해변로 361,"../media/민락수변공원.jpg",35.146195,129.116304
유엔 조각공원,부산광역시 남구 대연제4동 779-1,"../media/유엔 조각공원.jpg",35.129669,129.097457
대연수목전시원,부산광역시 남구 대연동 713,"../media/대연수목전시원.jpg",35.125501,129.09894
미포철길,부산광역시 해운대구 중제1동 달맞이길50번길 20,"../media/미포철길.jpg",35.16002,129.170831
청사포 다릿돌전망대,부산광역시 해운대구 중동 산3-9,"../media/청사포 다릿돌전망대.jpg",35.164106,129.19678
장산산림욕장,부산광역시 해운대구 좌동 1381,"../media/장산산림욕장.jpg",35.185135,129.165142
삼주다이아몬드베이,부산광역시 남구 용호동 분포로 101,"../media/삼주다이아몬드베이.jpg",35.132969,129.1161
동백섬 해안산책로,부산광역시 해운대구 우제1동 707,"../media/동백섬 해안산책로.jpg",35.153485,129.153601
달맞이언덕,부산광역시 해운대구 중제1동,"../media/달맞이언덕.jpg",35.155716,129.178294
문탠로드,부산광역시 해운대구 중제2동 달맞이길,"../media/문탠로드.jpg",35.156372,129.18028
부산 엑스 더 스카이,부산광역시 해운대구 달맞이길 30,"../media/부산 엑스 더 스카이.jpg",35.159844,129.169804
달맞이동산,부산광역시 해운대구 중동,"../media/달맞이동산.jpg",35.156974,129.182217
해운대해수욕장,부산광역시 해운대구 중동 1415-27,"../media/해운대해수욕장.jpg",35.159021,129.16035
F1963,부산광역시 수영구 구락로123번길 20,"../media/F1963.jpg",35.176698,129.115319
수영팔도시장,부산광역시 수영구 수영로705번길 36,"../media/수영팔도시장.jpg",35.16878,129.116916
부산시립미술관,부산광역시 해운대구 APEC로 58,"../media/부산시립미술관.jpg",35.166736,129.137084
해리단길,부산광역시 해운대구 우동,"../media/해리단길.jpg",35.164835,129.157635
광안리해수욕장,부산광역시 수영구 광안동 193-13,"../media/광안리해수욕장.jpg",35.153158,129.118704
